{"id":"req_1757717674494_h1yzs9","timestamp":"2025-09-12T22:54:34.494Z","type":"request","prompt":"Plan a trip to Bali for 2 weeks","metadata":{"model":"gpt-4o-mini","strategy":"ultra-fast"}}
{"id":"req_1757717674494_h1yzs9","timestamp":"2025-09-12T22:54:46.124Z","type":"response","response":{"destination":"Bali","title":"14 Days in Bali","itinerary":[{"day":1,"date":"2025-09-13","title":"Day 1: Explore Bali","_destination":"Bali","activities":[{"time":"09:00 AM","description":"Historic city center of Bali","category":"Attraction","address":"Bali","venue_name":"Bali Historic Center","rating":4.7,"_tips":"Rich in history and culture"},{"time":"01:00 PM","description":"Local breakfast cafe in Bali","category":"Food","address":"Bali","venue_name":"Bali Breakfast Spot","rating":4.3,"_tips":"Try the local specialties"},{"time":"03:00 PM","description":"Main cathedral in Bali","category":"Attraction","address":"Bali","venue_name":"Bali Cathedral","rating":4.6,"_tips":"Beautiful architecture"},{"time":"06:00 PM","description":"Traditional restaurant in Bali","category":"Food","address":"Bali","venue_name":"Bali Traditional Restaurant","rating":4.5,"_tips":"Ask for local recommendations"},{"time":"08:00 PM","description":"Central park in Bali","category":"Leisure","address":"Bali","venue_name":"Bali Central Park","rating":4.6,"_tips":"Perfect for relaxing walks"}],"_coordinates":{"lat":22.64859,"lng":88.34115}},{"day":2,"date":"2025-09-14","title":"Day 2: Explore Bali","_destination":"Bali","activities":[{"time":"09:00 AM","description":"Main cathedral in Bali","category":"Attraction","address":"Bali","venue_name":"Bali Cathedral","rating":4.6,"_tips":"Beautiful architecture"},{"time":"01:00 PM","description":"Local lunch spot in Bali","category":"Food","address":"Bali","venue_name":"Bali Lunch Place","rating":4.2,"_tips":"Great for midday meals"},{"time":"03:00 PM","description":"City museum in Bali","category":"Attraction","address":"Bali","venue_name":"Bali City Museum","rating":4.5,"_tips":"Learn about local history"},{"time":"06:00 PM","description":"Evening dining in Bali","category":"Food","address":"Bali","venue_name":"Bali Dinner Restaurant","rating":4.6,"_tips":"Perfect for dinner"},{"time":"08:00 PM","description":"Shopping district in Bali","category":"Leisure","address":"Bali","venue_name":"Bali Shopping District","rating":4.3,"_tips":"Browse local shops and boutiques"}],"_coordinates":{"lat":22.64859,"lng":88.34115}},{"day":3,"date":"2025-09-15","title":"Day 3: Explore Bali","_destination":"Bali","activities":[{"time":"09:00 AM","description":"City museum in Bali","category":"Attraction","address":"Bali","venue_name":"Bali City Museum","rating":4.5,"_tips":"Learn about local history"},{"time":"01:00 PM","description":"Coffee and pastries in Bali","category":"Food","address":"Bali","venue_name":"Bali Cafe","rating":4.4,"_tips":"Excellent coffee"},{"time":"03:00 PM","description":"Scenic viewpoint in Bali","category":"Attraction","address":"Bali","venue_name":"Bali Viewpoint","rating":4.8,"_tips":"Best views of the city"},{"time":"06:00 PM","description":"Street food in Bali","category":"Food","address":"Bali","venue_name":"Bali Street Food Market","rating":4.3,"_tips":"Authentic local flavors"},{"time":"08:00 PM","description":"Riverside walk in Bali","category":"Leisure","address":"Bali","venue_name":"Bali Riverside","rating":4.7,"_tips":"Peaceful stroll along the water"}],"_coordinates":{"lat":22.64859,"lng":88.34115}},{"day":4,"date":"2025-09-16","title":"Day 4: Explore Bali","_destination":"Bali","activities":[{"time":"09:00 AM","description":"Scenic viewpoint in Bali","category":"Attraction","address":"Bali","venue_name":"Bali Viewpoint","rating":4.8,"_tips":"Best views of the city"},{"time":"01:00 PM","description":"Local breakfast cafe in Bali","category":"Food","address":"Bali","venue_name":"Bali Breakfast Spot","rating":4.3,"_tips":"Try the local specialties"},{"time":"03:00 PM","description":"Local market in Bali","category":"Attraction","address":"Bali","venue_name":"Bali Market","rating":4.4,"_tips":"Great for shopping and people watching"},{"time":"06:00 PM","description":"Traditional restaurant in Bali","category":"Food","address":"Bali","venue_name":"Bali Traditional Restaurant","rating":4.5,"_tips":"Ask for local recommendations"},{"time":"08:00 PM","description":"Local cultural quarter in Bali","category":"Leisure","address":"Bali","venue_name":"Bali Cultural Quarter","rating":4.5,"_tips":"Experience local culture"}],"_coordinates":{"lat":22.64859,"lng":88.34115}},{"day":5,"date":"2025-09-17","title":"Day 5: Explore Bali","_destination":"Bali","activities":[{"time":"09:00 AM","description":"Local market in Bali","category":"Attraction","address":"Bali","venue_name":"Bali Market","rating":4.4,"_tips":"Great for shopping and people watching"},{"time":"01:00 PM","description":"Local lunch spot in Bali","category":"Food","address":"Bali","venue_name":"Bali Lunch Place","rating":4.2,"_tips":"Great for midday meals"},{"time":"03:00 PM","description":"Art gallery in Bali","category":"Attraction","address":"Bali","venue_name":"Bali Art Gallery","rating":4.5,"_tips":"Features local and international art"},{"time":"06:00 PM","description":"Evening dining in Bali","category":"Food","address":"Bali","venue_name":"Bali Dinner Restaurant","rating":4.6,"_tips":"Perfect for dinner"}],"_coordinates":{"lat":22.64859,"lng":88.34115}},{"day":6,"date":"2025-09-18","title":"Day 6: Explore Bali","_destination":"Bali","activities":[{"time":"09:00 AM","description":"Art gallery in Bali","category":"Attraction","address":"Bali","venue_name":"Bali Art Gallery","rating":4.5,"_tips":"Features local and international art"},{"time":"01:00 PM","description":"Coffee and pastries in Bali","category":"Food","address":"Bali","venue_name":"Bali Cafe","rating":4.4,"_tips":"Excellent coffee"},{"time":"03:00 PM","description":"Historic city center of Bali","category":"Attraction","address":"Bali","venue_name":"Bali Historic Center","rating":4.7,"_tips":"Rich in history and culture"},{"time":"06:00 PM","description":"Street food in Bali","category":"Food","address":"Bali","venue_name":"Bali Street Food Market","rating":4.3,"_tips":"Authentic local flavors"}],"_coordinates":{"lat":22.64859,"lng":88.34115}},{"day":7,"date":"2025-09-19","title":"Day 7: Explore Bali","_destination":"Bali","activities":[{"time":"09:00 AM","description":"Historic city center of Bali","category":"Attraction","address":"Bali","venue_name":"Bali Historic Center","rating":4.7,"_tips":"Rich in history and culture"},{"time":"01:00 PM","description":"Local breakfast cafe in Bali","category":"Food","address":"Bali","venue_name":"Bali Breakfast Spot","rating":4.3,"_tips":"Try the local specialties"},{"time":"03:00 PM","description":"Main cathedral in Bali","category":"Attraction","address":"Bali","venue_name":"Bali Cathedral","rating":4.6,"_tips":"Beautiful architecture"},{"time":"06:00 PM","description":"Traditional restaurant in Bali","category":"Food","address":"Bali","venue_name":"Bali Traditional Restaurant","rating":4.5,"_tips":"Ask for local recommendations"}],"_coordinates":{"lat":-8.3405,"lng":115.092}},{"day":8,"date":"2025-09-20","title":"Day 8: Explore Bali","_destination":"Bali","activities":[{"time":"09:00 AM","description":"Main cathedral in Bali","category":"Attraction","address":"Bali","venue_name":"Bali Cathedral","rating":4.6,"_tips":"Beautiful architecture"},{"time":"01:00 PM","description":"Local lunch spot in Bali","category":"Food","address":"Bali","venue_name":"Bali Lunch Place","rating":4.2,"_tips":"Great for midday meals"},{"time":"03:00 PM","description":"City museum in Bali","category":"Attraction","address":"Bali","venue_name":"Bali City Museum","rating":4.5,"_tips":"Learn about local history"},{"time":"06:00 PM","description":"Evening dining in Bali","category":"Food","address":"Bali","venue_name":"Bali Dinner Restaurant","rating":4.6,"_tips":"Perfect for dinner"}],"_coordinates":{"lat":22.64859,"lng":88.34115}},{"day":9,"date":"2025-09-21","title":"Day 9: Explore Bali","_destination":"Bali","activities":[{"time":"09:00 AM","description":"City museum in Bali","category":"Attraction","address":"Bali","venue_name":"Bali City Museum","rating":4.5,"_tips":"Learn about local history"},{"time":"01:00 PM","description":"Coffee and pastries in Bali","category":"Food","address":"Bali","venue_name":"Bali Cafe","rating":4.4,"_tips":"Excellent coffee"},{"time":"03:00 PM","description":"Scenic viewpoint in Bali","category":"Attraction","address":"Bali","venue_name":"Bali Viewpoint","rating":4.8,"_tips":"Best views of the city"},{"time":"06:00 PM","description":"Street food in Bali","category":"Food","address":"Bali","venue_name":"Bali Street Food Market","rating":4.3,"_tips":"Authentic local flavors"}],"_coordinates":{"lat":22.64859,"lng":88.34115}},{"day":10,"date":"2025-09-22","title":"Day 10: Explore Bali","_destination":"Bali","activities":[{"time":"09:00 AM","description":"Scenic viewpoint in Bali","category":"Attraction","address":"Bali","venue_name":"Bali Viewpoint","rating":4.8,"_tips":"Best views of the city"},{"time":"01:00 PM","description":"Local breakfast cafe in Bali","category":"Food","address":"Bali","venue_name":"Bali Breakfast Spot","rating":4.3,"_tips":"Try the local specialties"},{"time":"03:00 PM","description":"Local market in Bali","category":"Attraction","address":"Bali","venue_name":"Bali Market","rating":4.4,"_tips":"Great for shopping and people watching"},{"time":"06:00 PM","description":"Traditional restaurant in Bali","category":"Food","address":"Bali","venue_name":"Bali Traditional Restaurant","rating":4.5,"_tips":"Ask for local recommendations"}],"_coordinates":{"lat":-8.3405,"lng":115.092}},{"day":11,"date":"2025-09-23","title":"Day 11: Explore Bali","_destination":"Bali","activities":[{"time":"09:00 AM","description":"Local market in Bali","category":"Attraction","address":"Bali","venue_name":"Bali Market","rating":4.4,"_tips":"Great for shopping and people watching"},{"time":"01:00 PM","description":"Local lunch spot in Bali","category":"Food","address":"Bali","venue_name":"Bali Lunch Place","rating":4.2,"_tips":"Great for midday meals"},{"time":"03:00 PM","description":"Art gallery in Bali","category":"Attraction","address":"Bali","venue_name":"Bali Art Gallery","rating":4.5,"_tips":"Features local and international art"},{"time":"06:00 PM","description":"Evening dining in Bali","category":"Food","address":"Bali","venue_name":"Bali Dinner Restaurant","rating":4.6,"_tips":"Perfect for dinner"}],"_coordinates":{"lat":22.64859,"lng":88.34115}},{"day":12,"date":"2025-09-24","title":"Day 12: Explore Bali","_destination":"Bali","activities":[{"time":"09:00 AM","description":"Art gallery in Bali","category":"Attraction","address":"Bali","venue_name":"Bali Art Gallery","rating":4.5,"_tips":"Features local and international art"},{"time":"01:00 PM","description":"Coffee and pastries in Bali","category":"Food","address":"Bali","venue_name":"Bali Cafe","rating":4.4,"_tips":"Excellent coffee"},{"time":"03:00 PM","description":"Historic city center of Bali","category":"Attraction","address":"Bali","venue_name":"Bali Historic Center","rating":4.7,"_tips":"Rich in history and culture"},{"time":"06:00 PM","description":"Street food in Bali","category":"Food","address":"Bali","venue_name":"Bali Street Food Market","rating":4.3,"_tips":"Authentic local flavors"}],"_coordinates":{"lat":-8.3405,"lng":115.092}},{"day":13,"date":"2025-09-25","title":"Day 13: Explore Bali","_destination":"Bali","activities":[{"time":"09:00 AM","description":"Historic city center of Bali","category":"Attraction","address":"Bali","venue_name":"Bali Historic Center","rating":4.7,"_tips":"Rich in history and culture"},{"time":"01:00 PM","description":"Local breakfast cafe in Bali","category":"Food","address":"Bali","venue_name":"Bali Breakfast Spot","rating":4.3,"_tips":"Try the local specialties"},{"time":"03:00 PM","description":"Main cathedral in Bali","category":"Attraction","address":"Bali","venue_name":"Bali Cathedral","rating":4.6,"_tips":"Beautiful architecture"},{"time":"06:00 PM","description":"Traditional restaurant in Bali","category":"Food","address":"Bali","venue_name":"Bali Traditional Restaurant","rating":4.5,"_tips":"Ask for local recommendations"}],"_coordinates":{"lat":22.64859,"lng":88.34115}},{"day":14,"date":"2025-09-26","title":"Day 14: Explore Bali","_destination":"Bali","activities":[{"time":"09:00 AM","description":"Main cathedral in Bali","category":"Attraction","address":"Bali","venue_name":"Bali Cathedral","rating":4.6,"_tips":"Beautiful architecture"},{"time":"01:00 PM","description":"Local lunch spot in Bali","category":"Food","address":"Bali","venue_name":"Bali Lunch Place","rating":4.2,"_tips":"Great for midday meals"},{"time":"03:00 PM","description":"City museum in Bali","category":"Attraction","address":"Bali","venue_name":"Bali City Museum","rating":4.5,"_tips":"Learn about local history"},{"time":"06:00 PM","description":"Evening dining in Bali","category":"Food","address":"Bali","venue_name":"Bali Dinner Restaurant","rating":4.6,"_tips":"Perfect for dinner"}],"_coordinates":{"lat":-8.3405,"lng":115.092}}],"quickTips":["Book accommodations in advance","Check visa requirements","Get travel insurance","Download offline maps","Keep digital copies of documents"],"_costEstimate":{"total":4200,"flights":1400,"accommodation":1400,"dailyExpenses":1400,"currency":"USD","breakdown":[{"type":"flight","description":"Unknown → Bali","amount":800},{"type":"flight","description":"Bali → Unknown","amount":600},{"type":"accommodation","description":"Bali (14 nights)","amount":1400}]},"_hotelOptions":{},"_flightOptions":{},"_enrichedWithRadar":true},"duration":11630,"metadata":{"model":"gpt-4o-mini","strategy":"ultra-fast-enriched","destinations":["Bali"],"totalDays":14}}
