{"id":"req_1757658887346_eb9l6h5","timestamp":"2025-09-12T06:34:47.346Z","type":"request","prompt":"Plan a 2 weeks trip to egypt and greece","metadata":{"model":"gpt-4o-mini","strategy":"ultra-fast"}}
{"id":"req_1757658887346_eb9l6h5","timestamp":"2025-09-12T06:35:39.135Z","type":"response","response":{"destination":"Egypt, Greece","title":"28-Day Multi-City Adventure","itinerary":[{"day":1,"date":"2025-09-13","title":"Day 1: Explore Egypt","_destination":"Egypt","activities":[{"time":"09:00 AM","description":"Historic city center of Egypt","category":"Attraction","address":"Egypt","venue_name":"Egypt Historic Center","rating":4.7,"_tips":"Rich in history and culture"},{"time":"01:00 PM","description":"Local breakfast cafe in Egypt","category":"Food","address":"Egypt","venue_name":"Egypt Breakfast Spot","rating":4.3,"_tips":"Try the local specialties"},{"time":"03:00 PM","description":"Main cathedral in Egypt","category":"Attraction","address":"Egypt","venue_name":"Egypt Cathedral","rating":4.6,"_tips":"Beautiful architecture"},{"time":"06:00 PM","description":"Traditional restaurant in Egypt","category":"Food","address":"Egypt","venue_name":"Egypt Traditional Restaurant","rating":4.5,"_tips":"Ask for local recommendations"},{"time":"08:00 PM","description":"Central park in Egypt","category":"Leisure","address":"Egypt","venue_name":"Egypt Central Park","rating":4.6,"_tips":"Perfect for relaxing walks"}]},{"day":2,"date":"2025-09-14","title":"Day 2: Explore Egypt","_destination":"Egypt","activities":[{"time":"09:00 AM","description":"Main cathedral in Egypt","category":"Attraction","address":"Egypt","venue_name":"Egypt Cathedral","rating":4.6,"_tips":"Beautiful architecture"},{"time":"01:00 PM","description":"Local lunch spot in Egypt","category":"Food","address":"Egypt","venue_name":"Egypt Lunch Place","rating":4.2,"_tips":"Great for midday meals"},{"time":"03:00 PM","description":"City museum in Egypt","category":"Attraction","address":"Egypt","venue_name":"Egypt City Museum","rating":4.5,"_tips":"Learn about local history"},{"time":"06:00 PM","description":"Evening dining in Egypt","category":"Food","address":"Egypt","venue_name":"Egypt Dinner Restaurant","rating":4.6,"_tips":"Perfect for dinner"},{"time":"08:00 PM","description":"Shopping district in Egypt","category":"Leisure","address":"Egypt","venue_name":"Egypt Shopping District","rating":4.3,"_tips":"Browse local shops and boutiques"}]},{"day":3,"date":"2025-09-15","title":"Day 3: Explore Egypt","_destination":"Egypt","activities":[{"time":"09:00 AM","description":"City museum in Egypt","category":"Attraction","address":"Egypt","venue_name":"Egypt City Museum","rating":4.5,"_tips":"Learn about local history","coordinates":{"lat":27,"lng":30}},{"time":"01:00 PM","description":"Coffee and pastries in Egypt","category":"Food","address":"Egypt","venue_name":"Egypt Cafe","rating":4.4,"_tips":"Excellent coffee","coordinates":{"lat":27,"lng":30}},{"time":"03:00 PM","description":"Scenic viewpoint in Egypt","category":"Attraction","address":"Egypt","venue_name":"Egypt Viewpoint","rating":4.8,"_tips":"Best views of the city","coordinates":{"lat":27,"lng":30}},{"time":"06:00 PM","description":"Street food in Egypt","category":"Food","address":"Egypt","venue_name":"Egypt Street Food Market","rating":4.3,"_tips":"Authentic local flavors","coordinates":{"lat":27,"lng":30}},{"time":"08:00 PM","description":"Riverside walk in Egypt","category":"Leisure","address":"Egypt","venue_name":"Egypt Riverside","rating":4.7,"_tips":"Peaceful stroll along the water","coordinates":{"lat":27,"lng":30}}],"_coordinates":{"lat":27,"lng":30}},{"day":4,"date":"2025-09-16","title":"Day 4: Explore Egypt","_destination":"Egypt","activities":[{"time":"09:00 AM","description":"Scenic viewpoint in Egypt","category":"Attraction","address":"Egypt","venue_name":"Egypt Viewpoint","rating":4.8,"_tips":"Best views of the city"},{"time":"01:00 PM","description":"Local breakfast cafe in Egypt","category":"Food","address":"Egypt","venue_name":"Egypt Breakfast Spot","rating":4.3,"_tips":"Try the local specialties"},{"time":"03:00 PM","description":"Local market in Egypt","category":"Attraction","address":"Egypt","venue_name":"Egypt Market","rating":4.4,"_tips":"Great for shopping and people watching"},{"time":"06:00 PM","description":"Traditional restaurant in Egypt","category":"Food","address":"Egypt","venue_name":"Egypt Traditional Restaurant","rating":4.5,"_tips":"Ask for local recommendations"},{"time":"08:00 PM","description":"Local cultural quarter in Egypt","category":"Leisure","address":"Egypt","venue_name":"Egypt Cultural Quarter","rating":4.5,"_tips":"Experience local culture"}]},{"day":5,"date":"2025-09-17","title":"Day 5: Explore Egypt","_destination":"Egypt","activities":[{"time":"09:00 AM","description":"Local market in Egypt","category":"Attraction","address":"Egypt","venue_name":"Egypt Market","rating":4.4,"_tips":"Great for shopping and people watching","coordinates":{"lat":27,"lng":30}},{"time":"01:00 PM","description":"Local lunch spot in Egypt","category":"Food","address":"Egypt","venue_name":"Egypt Lunch Place","rating":4.2,"_tips":"Great for midday meals","coordinates":{"lat":27,"lng":30}},{"time":"03:00 PM","description":"Art gallery in Egypt","category":"Attraction","address":"Egypt","venue_name":"Egypt Art Gallery","rating":4.5,"_tips":"Features local and international art","coordinates":{"lat":27,"lng":30}},{"time":"06:00 PM","description":"Evening dining in Egypt","category":"Food","address":"Egypt","venue_name":"Egypt Dinner Restaurant","rating":4.6,"_tips":"Perfect for dinner","coordinates":{"lat":27,"lng":30}}],"_coordinates":{"lat":27,"lng":30}},{"day":6,"date":"2025-09-18","title":"Day 6: Explore Egypt","_destination":"Egypt","activities":[{"time":"09:00 AM","description":"Art gallery in Egypt","category":"Attraction","address":"Egypt","venue_name":"Egypt Art Gallery","rating":4.5,"_tips":"Features local and international art"},{"time":"01:00 PM","description":"Coffee and pastries in Egypt","category":"Food","address":"Egypt","venue_name":"Egypt Cafe","rating":4.4,"_tips":"Excellent coffee"},{"time":"03:00 PM","description":"Historic city center of Egypt","category":"Attraction","address":"Egypt","venue_name":"Egypt Historic Center","rating":4.7,"_tips":"Rich in history and culture"},{"time":"06:00 PM","description":"Street food in Egypt","category":"Food","address":"Egypt","venue_name":"Egypt Street Food Market","rating":4.3,"_tips":"Authentic local flavors"}]},{"day":7,"date":"2025-09-19","title":"Day 7: Explore Egypt","_destination":"Egypt","activities":[{"time":"09:00 AM","description":"Historic city center of Egypt","category":"Attraction","address":"Egypt","venue_name":"Egypt Historic Center","rating":4.7,"_tips":"Rich in history and culture","coordinates":{"lat":27,"lng":30}},{"time":"01:00 PM","description":"Local breakfast cafe in Egypt","category":"Food","address":"Egypt","venue_name":"Egypt Breakfast Spot","rating":4.3,"_tips":"Try the local specialties","coordinates":{"lat":27,"lng":30}},{"time":"03:00 PM","description":"Main cathedral in Egypt","category":"Attraction","address":"Egypt","venue_name":"Egypt Cathedral","rating":4.6,"_tips":"Beautiful architecture","coordinates":{"lat":27,"lng":30}},{"time":"06:00 PM","description":"Traditional restaurant in Egypt","category":"Food","address":"Egypt","venue_name":"Egypt Traditional Restaurant","rating":4.5,"_tips":"Ask for local recommendations","coordinates":{"lat":27,"lng":30}}],"_coordinates":{"lat":27,"lng":30}},{"day":8,"date":"2025-09-20","title":"Day 8: Explore Egypt","_destination":"Egypt","activities":[{"time":"09:00 AM","description":"Main cathedral in Egypt","category":"Attraction","address":"Egypt","venue_name":"Egypt Cathedral","rating":4.6,"_tips":"Beautiful architecture"},{"time":"01:00 PM","description":"Local lunch spot in Egypt","category":"Food","address":"Egypt","venue_name":"Egypt Lunch Place","rating":4.2,"_tips":"Great for midday meals"},{"time":"03:00 PM","description":"City museum in Egypt","category":"Attraction","address":"Egypt","venue_name":"Egypt City Museum","rating":4.5,"_tips":"Learn about local history"},{"time":"06:00 PM","description":"Evening dining in Egypt","category":"Food","address":"Egypt","venue_name":"Egypt Dinner Restaurant","rating":4.6,"_tips":"Perfect for dinner"}]},{"day":9,"date":"2025-09-21","title":"Day 9: Explore Egypt","_destination":"Egypt","activities":[{"time":"09:00 AM","description":"City museum in Egypt","category":"Attraction","address":"Egypt","venue_name":"Egypt City Museum","rating":4.5,"_tips":"Learn about local history","coordinates":{"lat":27,"lng":30}},{"time":"01:00 PM","description":"Coffee and pastries in Egypt","category":"Food","address":"Egypt","venue_name":"Egypt Cafe","rating":4.4,"_tips":"Excellent coffee","coordinates":{"lat":27,"lng":30}},{"time":"03:00 PM","description":"Scenic viewpoint in Egypt","category":"Attraction","address":"Egypt","venue_name":"Egypt Viewpoint","rating":4.8,"_tips":"Best views of the city","coordinates":{"lat":27,"lng":30}},{"time":"06:00 PM","description":"Street food in Egypt","category":"Food","address":"Egypt","venue_name":"Egypt Street Food Market","rating":4.3,"_tips":"Authentic local flavors","coordinates":{"lat":27,"lng":30}}],"_coordinates":{"lat":27,"lng":30}},{"day":10,"date":"2025-09-22","title":"Day 10: Explore Egypt","_destination":"Egypt","activities":[{"time":"09:00 AM","description":"Scenic viewpoint in Egypt","category":"Attraction","address":"Egypt","venue_name":"Egypt Viewpoint","rating":4.8,"_tips":"Best views of the city","coordinates":{"lat":27,"lng":30}},{"time":"01:00 PM","description":"Local breakfast cafe in Egypt","category":"Food","address":"Egypt","venue_name":"Egypt Breakfast Spot","rating":4.3,"_tips":"Try the local specialties","coordinates":{"lat":27,"lng":30}},{"time":"03:00 PM","description":"Local market in Egypt","category":"Attraction","address":"Egypt","venue_name":"Egypt Market","rating":4.4,"_tips":"Great for shopping and people watching","coordinates":{"lat":27,"lng":30}},{"time":"06:00 PM","description":"Traditional restaurant in Egypt","category":"Food","address":"Egypt","venue_name":"Egypt Traditional Restaurant","rating":4.5,"_tips":"Ask for local recommendations","coordinates":{"lat":27,"lng":30}}],"_coordinates":{"lat":27,"lng":30}},{"day":11,"date":"2025-09-23","title":"Day 11: Explore Egypt","_destination":"Egypt","activities":[{"time":"09:00 AM","description":"Local market in Egypt","category":"Attraction","address":"Egypt","venue_name":"Egypt Market","rating":4.4,"_tips":"Great for shopping and people watching","coordinates":{"lat":27,"lng":30}},{"time":"01:00 PM","description":"Local lunch spot in Egypt","category":"Food","address":"Egypt","venue_name":"Egypt Lunch Place","rating":4.2,"_tips":"Great for midday meals","coordinates":{"lat":27,"lng":30}},{"time":"03:00 PM","description":"Art gallery in Egypt","category":"Attraction","address":"Egypt","venue_name":"Egypt Art Gallery","rating":4.5,"_tips":"Features local and international art","coordinates":{"lat":27,"lng":30}},{"time":"06:00 PM","description":"Evening dining in Egypt","category":"Food","address":"Egypt","venue_name":"Egypt Dinner Restaurant","rating":4.6,"_tips":"Perfect for dinner","coordinates":{"lat":27,"lng":30}}],"_coordinates":{"lat":27,"lng":30}},{"day":12,"date":"2025-09-24","title":"Day 12: Explore Egypt","_destination":"Egypt","activities":[{"time":"09:00 AM","description":"Art gallery in Egypt","category":"Attraction","address":"Egypt","venue_name":"Egypt Art Gallery","rating":4.5,"_tips":"Features local and international art"},{"time":"01:00 PM","description":"Coffee and pastries in Egypt","category":"Food","address":"Egypt","venue_name":"Egypt Cafe","rating":4.4,"_tips":"Excellent coffee"},{"time":"03:00 PM","description":"Historic city center of Egypt","category":"Attraction","address":"Egypt","venue_name":"Egypt Historic Center","rating":4.7,"_tips":"Rich in history and culture","coordinates":{"lat":27,"lng":30}},{"time":"06:00 PM","description":"Street food in Egypt","category":"Food","address":"Egypt","venue_name":"Egypt Street Food Market","rating":4.3,"_tips":"Authentic local flavors"}],"_coordinates":{"lat":27,"lng":30}},{"day":13,"date":"2025-09-25","title":"Day 13: Explore Egypt","_destination":"Egypt","activities":[{"time":"09:00 AM","description":"Historic city center of Egypt","category":"Attraction","address":"Egypt","venue_name":"Egypt Historic Center","rating":4.7,"_tips":"Rich in history and culture"},{"time":"01:00 PM","description":"Local breakfast cafe in Egypt","category":"Food","address":"Egypt","venue_name":"Egypt Breakfast Spot","rating":4.3,"_tips":"Try the local specialties","coordinates":{"lat":27,"lng":30}},{"time":"03:00 PM","description":"Main cathedral in Egypt","category":"Attraction","address":"Egypt","venue_name":"Egypt Cathedral","rating":4.6,"_tips":"Beautiful architecture","coordinates":{"lat":27,"lng":30}},{"time":"06:00 PM","description":"Traditional restaurant in Egypt","category":"Food","address":"Egypt","venue_name":"Egypt Traditional Restaurant","rating":4.5,"_tips":"Ask for local recommendations","coordinates":{"lat":27,"lng":30}}],"_coordinates":{"lat":27,"lng":30}},{"day":14,"date":"2025-09-26","title":"Day 14: Explore Egypt","_destination":"Egypt","activities":[{"time":"09:00 AM","description":"Main cathedral in Egypt","category":"Attraction","address":"Egypt","venue_name":"Egypt Cathedral","rating":4.6,"_tips":"Beautiful architecture"},{"time":"01:00 PM","description":"Local lunch spot in Egypt","category":"Food","address":"Egypt","venue_name":"Egypt Lunch Place","rating":4.2,"_tips":"Great for midday meals"},{"time":"03:00 PM","description":"City museum in Egypt","category":"Attraction","address":"Egypt","venue_name":"Egypt City Museum","rating":4.5,"_tips":"Learn about local history"},{"time":"06:00 PM","description":"Evening dining in Egypt","category":"Food","address":"Egypt","venue_name":"Egypt Dinner Restaurant","rating":4.6,"_tips":"Perfect for dinner"}]},{"day":15,"date":"2025-09-27","title":"Day 15: Explore Greece","_destination":"Greece","activities":[{"time":"09:00 AM","description":"Historic city center of Greece","category":"Attraction","address":"Greece","venue_name":"Greece Historic Center","rating":4.7,"_tips":"Rich in history and culture"},{"time":"01:00 PM","description":"Local breakfast cafe in Greece","category":"Food","address":"Greece","venue_name":"Greece Breakfast Spot","rating":4.3,"_tips":"Try the local specialties"},{"time":"03:00 PM","description":"Main cathedral in Greece","category":"Attraction","address":"Greece","venue_name":"Greece Cathedral","rating":4.6,"_tips":"Beautiful architecture"},{"time":"06:00 PM","description":"Traditional restaurant in Greece","category":"Food","address":"Greece","venue_name":"Greece Traditional Restaurant","rating":4.5,"_tips":"Ask for local recommendations"},{"time":"08:00 PM","description":"Central park in Greece","category":"Leisure","address":"Greece","venue_name":"Greece Central Park","rating":4.6,"_tips":"Perfect for relaxing walks"}]},{"day":16,"date":"2025-09-28","title":"Day 16: Explore Greece","_destination":"Greece","activities":[{"time":"09:00 AM","description":"Main cathedral in Greece","category":"Attraction","address":"Greece","venue_name":"Greece Cathedral","rating":4.6,"_tips":"Beautiful architecture","coordinates":{"lat":39,"lng":22}},{"time":"01:00 PM","description":"Local lunch spot in Greece","category":"Food","address":"Greece","venue_name":"Greece Lunch Place","rating":4.2,"_tips":"Great for midday meals","coordinates":{"lat":39,"lng":22}},{"time":"03:00 PM","description":"City museum in Greece","category":"Attraction","address":"Greece","venue_name":"Greece City Museum","rating":4.5,"_tips":"Learn about local history","coordinates":{"lat":39,"lng":22}},{"time":"06:00 PM","description":"Evening dining in Greece","category":"Food","address":"Greece","venue_name":"Greece Dinner Restaurant","rating":4.6,"_tips":"Perfect for dinner","coordinates":{"lat":39,"lng":22}},{"time":"08:00 PM","description":"Shopping district in Greece","category":"Leisure","address":"Greece","venue_name":"Greece Shopping District","rating":4.3,"_tips":"Browse local shops and boutiques","coordinates":{"lat":39,"lng":22}}],"_coordinates":{"lat":39,"lng":22}},{"day":17,"date":"2025-09-29","title":"Day 17: Explore Greece","_destination":"Greece","activities":[{"time":"09:00 AM","description":"City museum in Greece","category":"Attraction","address":"Greece","venue_name":"Greece City Museum","rating":4.5,"_tips":"Learn about local history"},{"time":"01:00 PM","description":"Coffee and pastries in Greece","category":"Food","address":"Greece","venue_name":"Greece Cafe","rating":4.4,"_tips":"Excellent coffee"},{"time":"03:00 PM","description":"Scenic viewpoint in Greece","category":"Attraction","address":"Greece","venue_name":"Greece Viewpoint","rating":4.8,"_tips":"Best views of the city"},{"time":"06:00 PM","description":"Street food in Greece","category":"Food","address":"Greece","venue_name":"Greece Street Food Market","rating":4.3,"_tips":"Authentic local flavors"},{"time":"08:00 PM","description":"Riverside walk in Greece","category":"Leisure","address":"Greece","venue_name":"Greece Riverside","rating":4.7,"_tips":"Peaceful stroll along the water"}]},{"day":18,"date":"2025-09-30","title":"Day 18: Explore Greece","_destination":"Greece","activities":[{"time":"09:00 AM","description":"Scenic viewpoint in Greece","category":"Attraction","address":"Greece","venue_name":"Greece Viewpoint","rating":4.8,"_tips":"Best views of the city"},{"time":"01:00 PM","description":"Local breakfast cafe in Greece","category":"Food","address":"Greece","venue_name":"Greece Breakfast Spot","rating":4.3,"_tips":"Try the local specialties"},{"time":"03:00 PM","description":"Local market in Greece","category":"Attraction","address":"Greece","venue_name":"Greece Market","rating":4.4,"_tips":"Great for shopping and people watching"},{"time":"06:00 PM","description":"Traditional restaurant in Greece","category":"Food","address":"Greece","venue_name":"Greece Traditional Restaurant","rating":4.5,"_tips":"Ask for local recommendations"},{"time":"08:00 PM","description":"Local cultural quarter in Greece","category":"Leisure","address":"Greece","venue_name":"Greece Cultural Quarter","rating":4.5,"_tips":"Experience local culture"}]},{"day":19,"date":"2025-10-01","title":"Day 19: Explore Greece","_destination":"Greece","activities":[{"time":"09:00 AM","description":"Local market in Greece","category":"Attraction","address":"Greece","venue_name":"Greece Market","rating":4.4,"_tips":"Great for shopping and people watching"},{"time":"01:00 PM","description":"Local lunch spot in Greece","category":"Food","address":"Greece","venue_name":"Greece Lunch Place","rating":4.2,"_tips":"Great for midday meals"},{"time":"03:00 PM","description":"Art gallery in Greece","category":"Attraction","address":"Greece","venue_name":"Greece Art Gallery","rating":4.5,"_tips":"Features local and international art"},{"time":"06:00 PM","description":"Evening dining in Greece","category":"Food","address":"Greece","venue_name":"Greece Dinner Restaurant","rating":4.6,"_tips":"Perfect for dinner"}]},{"day":20,"date":"2025-10-02","title":"Day 20: Explore Greece","_destination":"Greece","activities":[{"time":"09:00 AM","description":"Art gallery in Greece","category":"Attraction","address":"Greece","venue_name":"Greece Art Gallery","rating":4.5,"_tips":"Features local and international art"},{"time":"01:00 PM","description":"Coffee and pastries in Greece","category":"Food","address":"Greece","venue_name":"Greece Cafe","rating":4.4,"_tips":"Excellent coffee"},{"time":"03:00 PM","description":"Historic city center of Greece","category":"Attraction","address":"Greece","venue_name":"Greece Historic Center","rating":4.7,"_tips":"Rich in history and culture"},{"time":"06:00 PM","description":"Street food in Greece","category":"Food","address":"Greece","venue_name":"Greece Street Food Market","rating":4.3,"_tips":"Authentic local flavors"}]},{"day":21,"date":"2025-10-03","title":"Day 21: Explore Greece","_destination":"Greece","activities":[{"time":"09:00 AM","description":"Historic city center of Greece","category":"Attraction","address":"Greece","venue_name":"Greece Historic Center","rating":4.7,"_tips":"Rich in history and culture"},{"time":"01:00 PM","description":"Local breakfast cafe in Greece","category":"Food","address":"Greece","venue_name":"Greece Breakfast Spot","rating":4.3,"_tips":"Try the local specialties"},{"time":"03:00 PM","description":"Main cathedral in Greece","category":"Attraction","address":"Greece","venue_name":"Greece Cathedral","rating":4.6,"_tips":"Beautiful architecture"},{"time":"06:00 PM","description":"Traditional restaurant in Greece","category":"Food","address":"Greece","venue_name":"Greece Traditional Restaurant","rating":4.5,"_tips":"Ask for local recommendations"}]},{"day":22,"date":"2025-10-04","title":"Day 22: Explore Greece","_destination":"Greece","activities":[{"time":"09:00 AM","description":"Main cathedral in Greece","category":"Attraction","address":"Greece","venue_name":"Greece Cathedral","rating":4.6,"_tips":"Beautiful architecture"},{"time":"01:00 PM","description":"Local lunch spot in Greece","category":"Food","address":"Greece","venue_name":"Greece Lunch Place","rating":4.2,"_tips":"Great for midday meals"},{"time":"03:00 PM","description":"City museum in Greece","category":"Attraction","address":"Greece","venue_name":"Greece City Museum","rating":4.5,"_tips":"Learn about local history"},{"time":"06:00 PM","description":"Evening dining in Greece","category":"Food","address":"Greece","venue_name":"Greece Dinner Restaurant","rating":4.6,"_tips":"Perfect for dinner"}]},{"day":23,"date":"2025-10-05","title":"Day 23: Explore Greece","_destination":"Greece","activities":[{"time":"09:00 AM","description":"City museum in Greece","category":"Attraction","address":"Greece","venue_name":"Greece City Museum","rating":4.5,"_tips":"Learn about local history"},{"time":"01:00 PM","description":"Coffee and pastries in Greece","category":"Food","address":"Greece","venue_name":"Greece Cafe","rating":4.4,"_tips":"Excellent coffee"},{"time":"03:00 PM","description":"Scenic viewpoint in Greece","category":"Attraction","address":"Greece","venue_name":"Greece Viewpoint","rating":4.8,"_tips":"Best views of the city"},{"time":"06:00 PM","description":"Street food in Greece","category":"Food","address":"Greece","venue_name":"Greece Street Food Market","rating":4.3,"_tips":"Authentic local flavors"}]},{"day":24,"date":"2025-10-06","title":"Day 24: Explore Greece","_destination":"Greece","activities":[{"time":"09:00 AM","description":"Scenic viewpoint in Greece","category":"Attraction","address":"Greece","venue_name":"Greece Viewpoint","rating":4.8,"_tips":"Best views of the city","coordinates":{"lat":39,"lng":22}},{"time":"01:00 PM","description":"Local breakfast cafe in Greece","category":"Food","address":"Greece","venue_name":"Greece Breakfast Spot","rating":4.3,"_tips":"Try the local specialties","coordinates":{"lat":39,"lng":22}},{"time":"03:00 PM","description":"Local market in Greece","category":"Attraction","address":"Greece","venue_name":"Greece Market","rating":4.4,"_tips":"Great for shopping and people watching","coordinates":{"lat":39,"lng":22}},{"time":"06:00 PM","description":"Traditional restaurant in Greece","category":"Food","address":"Greece","venue_name":"Greece Traditional Restaurant","rating":4.5,"_tips":"Ask for local recommendations","coordinates":{"lat":39,"lng":22}}],"_coordinates":{"lat":39,"lng":22}},{"day":25,"date":"2025-10-07","title":"Day 25: Explore Greece","_destination":"Greece","activities":[{"time":"09:00 AM","description":"Local market in Greece","category":"Attraction","address":"Greece","venue_name":"Greece Market","rating":4.4,"_tips":"Great for shopping and people watching"},{"time":"01:00 PM","description":"Local lunch spot in Greece","category":"Food","address":"Greece","venue_name":"Greece Lunch Place","rating":4.2,"_tips":"Great for midday meals"},{"time":"03:00 PM","description":"Art gallery in Greece","category":"Attraction","address":"Greece","venue_name":"Greece Art Gallery","rating":4.5,"_tips":"Features local and international art"},{"time":"06:00 PM","description":"Evening dining in Greece","category":"Food","address":"Greece","venue_name":"Greece Dinner Restaurant","rating":4.6,"_tips":"Perfect for dinner"}]},{"day":26,"date":"2025-10-08","title":"Day 26: Explore Greece","_destination":"Greece","activities":[{"time":"09:00 AM","description":"Art gallery in Greece","category":"Attraction","address":"Greece","venue_name":"Greece Art Gallery","rating":4.5,"_tips":"Features local and international art"},{"time":"01:00 PM","description":"Coffee and pastries in Greece","category":"Food","address":"Greece","venue_name":"Greece Cafe","rating":4.4,"_tips":"Excellent coffee"},{"time":"03:00 PM","description":"Historic city center of Greece","category":"Attraction","address":"Greece","venue_name":"Greece Historic Center","rating":4.7,"_tips":"Rich in history and culture"},{"time":"06:00 PM","description":"Street food in Greece","category":"Food","address":"Greece","venue_name":"Greece Street Food Market","rating":4.3,"_tips":"Authentic local flavors"}]},{"day":27,"date":"2025-10-09","title":"Day 27: Explore Greece","_destination":"Greece","activities":[{"time":"09:00 AM","description":"Historic city center of Greece","category":"Attraction","address":"Greece","venue_name":"Greece Historic Center","rating":4.7,"_tips":"Rich in history and culture"},{"time":"01:00 PM","description":"Local breakfast cafe in Greece","category":"Food","address":"Greece","venue_name":"Greece Breakfast Spot","rating":4.3,"_tips":"Try the local specialties"},{"time":"03:00 PM","description":"Main cathedral in Greece","category":"Attraction","address":"Greece","venue_name":"Greece Cathedral","rating":4.6,"_tips":"Beautiful architecture"},{"time":"06:00 PM","description":"Traditional restaurant in Greece","category":"Food","address":"Greece","venue_name":"Greece Traditional Restaurant","rating":4.5,"_tips":"Ask for local recommendations"}]},{"day":28,"date":"2025-10-10","title":"Day 28: Explore Greece","_destination":"Greece","activities":[{"time":"09:00 AM","description":"Main cathedral in Greece","category":"Attraction","address":"Greece","venue_name":"Greece Cathedral","rating":4.6,"_tips":"Beautiful architecture"},{"time":"01:00 PM","description":"Local lunch spot in Greece","category":"Food","address":"Greece","venue_name":"Greece Lunch Place","rating":4.2,"_tips":"Great for midday meals"},{"time":"03:00 PM","description":"City museum in Greece","category":"Attraction","address":"Greece","venue_name":"Greece City Museum","rating":4.5,"_tips":"Learn about local history"},{"time":"06:00 PM","description":"Evening dining in Greece","category":"Food","address":"Greece","venue_name":"Greece Dinner Restaurant","rating":4.6,"_tips":"Perfect for dinner"}]}],"quickTips":["Book accommodations in advance","Check visa requirements","Get travel insurance","Download offline maps","Keep digital copies of documents"],"_costEstimate":{"total":7250,"flights":1650,"accommodation":2800,"dailyExpenses":2800,"currency":"USD","breakdown":[{"type":"flight","description":"Unknown → Egypt","amount":700},{"type":"flight","description":"Egypt → Greece","amount":350},{"type":"flight","description":"Greece → Unknown","amount":600},{"type":"accommodation","description":"Egypt (14 nights)","amount":1120},{"type":"accommodation","description":"Greece (14 nights)","amount":1680}]},"_hotelOptions":{},"_flightOptions":{},"_enrichedWithRadar":true},"duration":51789,"metadata":{"model":"gpt-4o-mini","strategy":"ultra-fast-enriched","destinations":["Egypt, Greece"],"totalDays":28}}
